{
"name": "Stops",
    "records": [
       {
	 "title": "Niagara Falls",
         "id": "1", 
         "lat": 43.092679,
         "lon": -79.011612,
         "url": "../static/enock/RoadTripItinerary.html#NiagaraFalls"
       },
       {
          "title": "National Museum of the Air Force",
          "id": "2", 
          "lat": 39.8185888,
          "lon": -84.048460,
          "url": "../static/enock/RoadTripItinerary.html#AirForce"
       },
	   {
          "title": "TVX 2016",
          "id": "3", 
          "lat": 41.878114,
          "lon": -87.629798,
          "url": "../static/enock/RoadTripItinerary.html#TVX"
       },
	    {
          "title": "MT Rushmore",
          "id": "4", 
          "lat": 43.879102,
          "lon": -103.459067,
          "url": "../static/enock/RoadTripItinerary.html#MtRushmore"
       },
	   {
          "title": "Devils Tower",
          "id": "5", 
          "lat": 44.588646,
          "lon": -104.698546,
          "url": "../static/enock/RoadTripItinerary.html#DevilsTower"
       },
	   {
          "title": "Petzl Headquarters",
          "id": "6", 
          "lat": 40.760779,
          "lon": -111.891047,
          "url": "../static/enock/RoadTripItinerary.html#Petzl"
       },
	   {
          "title": "Parasailing Draper Utah",
          "id": "7", 
          "lat": 40.524671,
          "lon": -111.863823,
          "url": "../static/enock/RoadTripItinerary.html#Parasailing"
       },
	   {
          "title": "Lake Tahoe",
          "id": "8", 
          "lat": 39.096849,
          "lon": -120.032351,
          "url": "../static/enock/RoadTripItinerary.html#LakeTahoe"
       },
	   {
          "title": "Lassen Volcanic National Park",
          "id": "9", 
          "lat": 40.497660,
          "lon": -121.420655,
          "url": "../static/enock/RoadTripItinerary.html#Lassen"
       },
	    {
          "title": "Final Destination San Francisco, CA",
          "id": "10", 
          "lat": 37.354108,
          "lon": -121.955236,
          "url": "../static/enock/RoadTripItinerary.html#SanFrancisco"
       },
	   {
          "title": "Start Bethel, ME",
          "id": "11", 
          "lat": 44.404459,
          "lon": -70.789881,
          "xurl": "../static/enock/RoadTripItinerary.html#Bethel",
          "url": "https://docs.google.com/document/d/1gBIBT6vJBsPRImfkIC56eL_Odz91pdGf_rZdNbvusbs/pub#id.3i0vl36qh8de"
		  }
    ]
}
